City,Country,Date,Lat,Lng,Max Temp,Humidity,Cloudiness,Wind Speed,Current Description,Rain inches(last 3hrs),Snow inches(last 3hrs)
Abong Mbang,CM,2020-02-18 05:32:23,3.98,13.18,68.97,93,41,3.29,scattered clouds,0.0,0.0
Abonnema,NG,2020-02-18 05:32:23,4.71,6.79,78.69,88,78,2.51,broken clouds,0.0,0.0
Abu Dhabi,AE,2020-02-18 05:30:22,24.47,54.37,69.8,49,72,9.17,broken clouds,0.0,0.0
Acarau,BR,2020-02-18 05:32:24,-2.89,-40.12,74.91,94,92,2.04,overcast clouds,0.0,0.0
Achacachi,BO,2020-02-18 05:32:24,-16.05,-68.68,34.05,80,100,0.67,overcast clouds,0.0,0.0
Afsin,TR,2020-02-18 05:32:25,38.25,36.91,18.79,90,35,2.53,scattered clouds,0.0,0.0
Ahipara,NZ,2020-02-18 05:32:25,-35.17,173.17,71.92,73,20,4.54,few clouds,0.0,0.0
Airai,TL,2020-02-18 05:32:25,-8.93,125.41,80.2,69,41,4.9,light rain,2.81,0.0
Aklavik,CA,2020-02-18 05:32:25,68.22,-135.01,-23.8,74,5,5.82,clear sky,0.0,0.0
Albany,US,2020-02-18 05:29:18,42.6,-73.97,27.0,58,90,4.7,overcast clouds,0.0,0.0
Ciudad de Allende,MX,2020-02-18 05:30:51,25.28,-100.02,71.6,68,40,6.93,scattered clouds,0.0,0.0
Alliston,CA,2020-02-18 05:32:26,44.15,-79.87,32.0,79,90,10.29,overcast clouds,0.0,0.0
Alofi,NU,2020-02-18 05:32:26,-19.06,-169.92,80.6,78,100,11.41,overcast clouds,0.0,0.0
Ambilobe,MG,2020-02-18 05:32:26,-13.2,49.05,85.08,76,100,1.1,overcast clouds,0.0,0.0
Amot,NO,2020-02-18 05:32:26,59.57,7.99,29.53,87,25,7.81,scattered clouds,0.0,0.0
Anaconda,US,2020-02-18 05:32:27,46.13,-112.94,19.0,85,75,7.87,broken clouds,0.0,0.0
Anadyr,RU,2020-02-18 05:32:27,64.75,177.48,-14.01,68,40,6.71,scattered clouds,0.0,0.0
Anchorage,US,2020-02-18 05:31:35,61.22,-149.9,44.6,79,90,14.99,overcast clouds,0.0,0.0
Ancud,CL,2020-02-18 05:32:27,-41.87,-73.82,50.0,87,20,3.36,few clouds,0.0,0.0
Aquiraz,BR,2020-02-18 05:32:27,-3.9,-38.39,80.6,83,40,6.93,scattered clouds,0.0,0.0
Arinos,BR,2020-02-18 05:32:28,-15.92,-46.11,69.84,96,99,3.04,overcast clouds,0.0,0.0
Aripuana,BR,2020-02-18 05:32:28,-9.17,-60.63,73.69,98,45,1.72,light rain,1.63,0.0
Arraial do Cabo,BR,2020-02-18 05:32:28,-22.97,-42.03,78.8,83,82,16.11,broken clouds,0.0,0.0
Arrifes,PT,2020-02-18 05:32:28,37.77,-25.7,53.6,71,75,4.7,broken clouds,0.0,0.0
Asau,RO,2020-02-18 05:32:28,46.43,26.4,37.0,52,90,10.29,mist,0.0,0.0
At-Bashi,KG,2020-02-18 05:32:29,41.17,75.81,13.51,82,100,1.74,overcast clouds,0.0,0.0
Atambua,ID,2020-02-18 05:32:29,-9.11,124.89,83.52,72,19,5.68,few clouds,0.0,0.0
Atbasar,KZ,2020-02-18 05:32:29,51.8,68.33,5.52,96,92,14.45,overcast clouds,0.0,0.0
Atuntaqui,EC,2020-02-18 05:32:29,0.33,-78.22,55.4,76,20,6.93,few clouds,0.0,0.0
Atuona,PF,2020-02-18 05:32:30,-9.8,-139.03,80.98,79,90,20.98,overcast clouds,0.0,0.0
Auki,SB,2020-02-18 05:32:30,-8.77,160.7,84.78,73,100,21.34,light rain,0.38,0.0
Avarua,CK,2020-02-18 05:32:09,-21.21,-159.78,80.6,88,100,17.22,moderate rain,4.19,0.0
Avera,US,2020-02-18 05:32:30,33.19,-82.53,57.2,100,90,5.82,overcast clouds,0.0,0.0
Balaipungut,ID,2020-02-18 05:32:31,1.05,101.28,83.34,82,100,2.64,moderate rain,5.25,0.0
Ballina,AU,2020-02-18 05:32:31,-28.87,153.57,89.6,70,1,14.99,clear sky,0.0,0.0
Bambous Virieux,MU,2020-02-18 05:32:31,-20.34,57.76,82.99,74,40,9.17,shower rain,0.0,0.0
Bandarbeyla,SO,2020-02-18 05:32:31,9.49,50.81,78.26,74,72,12.21,light rain,0.13,0.0
Barentu,ER,2020-02-18 05:32:32,15.11,37.59,77.23,45,0,0.87,clear sky,0.0,0.0
Barrow,US,2020-02-18 05:30:02,71.29,-156.79,-41.8,70,1,5.82,haze,0.0,0.0
Batagay,RU,2020-02-18 05:32:32,67.63,134.63,-4.32,96,100,0.54,overcast clouds,0.0,0.0
Batagay-Alyta,RU,2020-02-18 05:32:33,67.8,130.41,-1.59,95,100,1.54,overcast clouds,0.0,0.0
Batemans Bay,AU,2020-02-18 05:32:33,-35.72,150.18,80.01,78,96,15.01,overcast clouds,0.0,0.0
Bathsheba,BB,2020-02-18 05:32:33,13.22,-59.52,78.8,74,40,18.34,scattered clouds,0.0,0.0
Batticaloa,LK,2020-02-18 05:32:33,7.71,81.69,83.26,52,1,6.73,clear sky,0.0,0.0
Bay City,US,2020-02-18 05:32:14,43.59,-83.89,30.2,92,90,10.29,light snow,0.0,0.0
Baykit,RU,2020-02-18 05:32:33,61.67,96.37,12.99,89,100,2.39,overcast clouds,0.0,0.0
Beidao,CN,2020-02-18 05:32:34,34.57,105.89,45.93,30,100,1.88,overcast clouds,0.0,0.0
Beinamar,TD,2020-02-18 05:32:34,8.67,15.38,67.57,22,0,4.09,clear sky,0.0,0.0
Beloha,MG,2020-02-18 05:32:34,-25.17,45.05,85.86,47,67,5.21,broken clouds,0.0,0.0
Benghazi,LY,2020-02-18 05:29:57,32.12,20.07,56.64,59,54,6.76,broken clouds,0.0,0.0
Bengkulu,ID,2020-02-18 05:32:35,-3.8,102.27,83.8,71,74,3.06,light rain,0.63,0.0
Beringovskiy,RU,2020-02-18 05:32:35,63.05,179.32,-7.51,87,96,21.83,overcast clouds,0.0,0.0
Berlevag,NO,2020-02-18 05:32:35,70.86,29.09,33.8,69,75,25.28,broken clouds,0.0,0.0
Bethel,US,2020-02-18 05:32:35,41.37,-73.41,37.0,63,1,3.85,clear sky,0.0,0.0
Bilibino,RU,2020-02-18 05:32:35,68.05,166.44,-23.75,98,72,1.52,broken clouds,0.0,0.0
Bilma,NE,2020-02-18 05:32:36,18.69,12.92,56.08,39,0,12.19,clear sky,0.0,0.0
Bima,ID,2020-02-18 05:32:36,-8.47,118.72,80.64,85,100,1.39,moderate rain,5.63,0.0
Birin,NP,2020-02-18 05:32:36,26.89,88.07,55.45,69,20,4.92,few clouds,0.0,0.0
Birjand,IR,2020-02-18 05:32:36,32.87,59.22,51.8,25,64,4.7,broken clouds,0.0,0.0
Bizhbulyak,RU,2020-02-18 05:32:36,53.7,54.26,27.77,90,100,23.55,light snow,0.0,0.38
Bluff,NZ,2020-02-18 05:32:36,-46.6,168.33,59.0,89,90,5.01,overcast clouds,0.0,0.0
Boa Vista,BR,2020-02-18 05:28:55,2.82,-60.67,84.2,58,75,10.29,broken clouds,0.0,0.0
Boden,SE,2020-02-18 05:32:37,65.83,21.69,26.6,100,40,1.97,scattered clouds,0.0,0.0
Bonavista,CA,2020-02-18 05:32:37,48.65,-53.11,26.01,88,70,8.01,broken clouds,0.0,0.0
Borba,BR,2020-02-18 05:32:38,-4.39,-59.59,74.61,97,55,1.34,light rain,0.56,0.0
Bredasdorp,ZA,2020-02-18 05:32:37,-34.53,20.04,69.01,93,23,11.41,light rain,0.31,0.0
Broome,US,2020-02-18 05:32:38,42.25,-75.83,30.99,68,90,6.93,overcast clouds,0.0,0.0
Buala,SB,2020-02-18 05:32:38,-8.14,159.59,81.63,79,100,11.07,light rain,2.38,0.0
Bud,US,2020-02-18 05:32:38,39.45,-86.18,51.8,87,90,5.82,light rain,0.0,0.0
Bulgan,MN,2020-02-18 05:32:38,48.81,103.53,18.59,69,100,2.04,overcast clouds,0.0,0.0
Bulungu,CD,2020-02-18 05:32:39,-4.55,18.6,72.84,94,94,1.63,light rain,0.13,0.0
Burns Lake,CA,2020-02-18 05:32:39,54.23,-125.75,15.66,94,41,3.51,scattered clouds,0.0,0.0
Businga,CD,2020-02-18 05:32:39,3.33,20.88,74.16,84,94,4.23,overcast clouds,0.0,0.0
Busselton,AU,2020-02-18 05:32:39,-33.65,115.33,89.01,18,100,2.24,overcast clouds,0.0,0.0
Butaritari,KI,2020-02-18 05:32:39,3.07,172.79,83.79,81,39,11.1,light rain,0.75,0.0
Ca Mau,VN,2020-02-18 05:30:56,9.18,105.15,91.53,42,38,22.19,scattered clouds,0.0,0.0
Cabatuan,PH,2020-02-18 05:32:40,10.88,122.49,83.77,61,40,17.94,light rain,0.38,0.0
Cabedelo,BR,2020-02-18 05:32:40,-6.98,-34.83,78.8,94,75,4.7,broken clouds,0.0,0.0
Cabo San Lucas,MX,2020-02-18 05:30:49,22.89,-109.91,68.0,40,40,6.93,scattered clouds,0.0,0.0
Cabra,ES,2020-02-18 05:32:40,37.47,-4.44,53.01,87,99,2.24,overcast clouds,0.0,0.0
Camana,PE,2020-02-18 05:32:40,-16.62,-72.71,66.2,92,100,4.72,overcast clouds,0.0,0.0
Campbellton,CA,2020-02-18 05:32:41,48.01,-66.67,-4.14,89,8,7.34,clear sky,0.0,0.0
Cape Town,ZA,2020-02-18 05:29:22,-33.93,18.42,66.0,77,0,9.17,clear sky,0.0,0.0
Caravelas,BR,2020-02-18 05:32:41,-17.71,-39.25,79.84,79,17,16.89,light rain,1.31,0.0
Cariamanga,EC,2020-02-18 05:32:41,-4.33,-79.55,57.24,90,33,3.6,scattered clouds,0.0,0.0
Carnarvon,AU,2020-02-18 05:32:41,-24.87,113.63,84.2,70,78,13.87,broken clouds,0.0,0.0
Carnot,CF,2020-02-18 05:32:42,4.94,15.87,64.87,36,68,1.61,broken clouds,0.0,0.0
Cartagena,CO,2020-02-18 05:32:42,10.4,-75.51,78.8,83,35,4.7,scattered clouds,0.0,0.0
Castro,BR,2020-02-18 05:32:42,-24.79,-50.01,65.82,86,56,3.31,broken clouds,0.0,0.0
Cayenne,GF,2020-02-18 05:32:42,4.93,-52.33,78.8,78,75,12.75,broken clouds,0.0,0.0
Celestun,MX,2020-02-18 05:32:42,20.87,-90.4,76.87,73,2,18.54,clear sky,0.0,0.0
Chake Chake,TZ,2020-02-18 05:32:43,-5.25,39.77,83.52,76,32,8.75,scattered clouds,0.0,0.0
Chany,RU,2020-02-18 05:32:43,55.31,76.76,18.36,94,88,10.8,overcast clouds,0.0,0.0
Chapleau,CA,2020-02-18 05:32:43,47.84,-83.4,17.91,93,86,9.35,overcast clouds,0.0,0.0
Charters Towers,AU,2020-02-18 05:32:43,-20.1,146.27,94.39,41,11,13.85,few clouds,0.0,0.0
Chernyshevskiy,RU,2020-02-18 05:32:43,63.01,112.47,-1.1,94,20,4.23,few clouds,0.0,0.0
Cherskiy,RU,2020-02-18 05:32:44,68.75,161.3,-17.77,97,95,4.21,overcast clouds,0.0,0.0
Chokurdakh,RU,2020-02-18 05:32:31,70.63,147.92,-7.67,99,97,3.98,overcast clouds,0.0,0.0
Chongoyape,PE,2020-02-18 05:32:44,-6.64,-79.39,73.4,83,75,11.41,broken clouds,0.0,0.0
Christchurch,NZ,2020-02-18 05:30:34,-43.53,172.63,80.01,77,95,17.22,light rain,0.13,0.0
Chumikan,RU,2020-02-18 05:32:44,54.72,135.31,15.53,75,100,1.83,overcast clouds,0.0,0.0
Chui,UY,2020-02-18 05:32:29,-33.7,-53.46,76.23,91,73,11.14,light rain,0.62,0.0
Cidreira,BR,2020-02-18 05:32:36,-30.18,-50.21,77.31,88,52,17.38,broken clouds,0.0,0.0
Clyde River,CA,2020-02-18 05:32:43,70.47,-68.59,-25.6,74,1,2.24,clear sky,0.0,0.0
Coari,BR,2020-02-18 05:32:45,-4.08,-63.14,75.24,97,87,2.37,light rain,0.25,0.0
Codajas,BR,2020-02-18 05:32:45,-3.84,-62.06,75.79,95,100,2.17,overcast clouds,0.0,0.0
Codrington,AU,2020-02-18 05:32:41,-38.27,141.97,61.86,86,71,32.99,light rain,0.38,0.0
Coyhaique,CL,2020-02-18 05:28:34,-45.58,-72.07,51.8,66,90,5.82,overcast clouds,0.0,0.0
College,US,2020-02-18 05:32:46,64.86,-147.8,16.0,84,90,3.83,overcast clouds,0.0,0.0
Comodoro Rivadavia,AR,2020-02-18 05:30:01,-45.87,-67.5,60.8,38,33,31.09,scattered clouds,0.0,0.0
Constitucion,CL,2020-02-18 05:32:46,-35.33,-72.42,57.38,56,0,8.93,clear sky,0.0,0.0
Contai,IN,2020-02-18 05:32:46,21.78,87.75,82.63,27,0,4.7,clear sky,0.0,0.0
Coolum Beach,AU,2020-02-18 05:31:32,-26.53,153.1,87.01,76,15,6.35,few clouds,0.0,0.0
Coos Bay,US,2020-02-18 05:32:47,43.37,-124.22,41.0,86,1,5.82,clear sky,0.0,0.0
Copacabana,CO,2020-02-18 05:32:47,6.35,-75.51,62.6,88,75,3.36,broken clouds,0.0,0.0
Corinth,GR,2020-02-18 05:32:47,37.94,22.96,46.99,86,20,1.45,few clouds,0.0,0.0
Cozumel,MX,2020-02-18 05:32:47,20.51,-86.95,77.0,88,5,4.7,clear sky,0.0,0.0
Cravo Norte,CO,2020-02-18 05:32:47,6.3,-70.2,82.62,50,51,6.11,broken clouds,0.0,0.0
Dabola,GN,2020-02-18 05:32:48,10.75,-11.12,62.98,34,0,2.86,clear sky,0.0,0.0
Dakar,SN,2020-02-18 05:32:48,14.69,-17.44,82.4,21,37,18.34,scattered clouds,0.0,0.0
Daru,PG,2020-02-18 05:32:48,-9.08,143.21,91.58,58,45,1.7,light rain,1.19,0.0
Denpasar,ID,2020-02-18 05:30:59,-8.65,115.22,87.8,79,20,8.05,few clouds,0.0,0.0
Deputatsky,RU,2020-02-18 05:32:48,69.3,139.9,-10.17,98,77,2.48,broken clouds,0.0,0.0
Dezhou,CN,2020-02-18 05:32:49,37.45,116.29,54.39,20,11,11.18,few clouds,0.0,0.0
Dhidhdhoo,MV,2020-02-18 05:32:49,6.88,73.1,82.85,70,41,11.45,scattered clouds,0.0,0.0
Dhing,IN,2020-02-18 05:32:49,26.47,92.47,78.64,45,20,2.89,few clouds,0.0,0.0
Dickinson,US,2020-02-18 05:32:49,29.46,-95.05,71.6,83,90,8.05,mist,0.0,0.0
Diffa,NE,2020-02-18 05:32:49,13.32,12.61,63.95,33,64,9.01,broken clouds,0.0,0.0
Dikson,RU,2020-02-18 05:32:50,73.51,80.55,9.61,84,100,34.76,overcast clouds,0.0,0.0
Dingle,PH,2020-02-18 05:32:50,11.0,122.67,83.77,61,40,17.94,light rain,0.38,0.0
Dire,ML,2020-02-18 05:32:50,12.28,-10.97,67.78,12,6,2.66,clear sky,0.0,0.0
Djenne,ML,2020-02-18 05:32:50,13.91,-4.55,69.91,12,0,8.43,clear sky,0.0,0.0
Drumheller,CA,2020-02-18 05:29:31,51.46,-112.71,5.0,47,100,3.38,light snow,0.0,0.25
Dubbo,AU,2020-02-18 05:30:56,-32.25,148.62,87.8,52,26,14.99,scattered clouds,0.0,0.0
Dwarka,IN,2020-02-18 05:32:51,22.24,68.97,79.52,49,0,6.6,clear sky,0.0,0.0
East London,ZA,2020-02-18 05:32:51,-33.02,27.91,66.2,100,20,6.93,light rain,0.0,0.0
Edd,ER,2020-02-18 05:32:51,13.93,41.69,82.54,51,33,3.0,scattered clouds,0.0,0.0
Egvekinot,RU,2020-02-18 05:32:52,66.32,-179.17,-15.84,95,89,16.33,overcast clouds,0.0,0.0
Endirey,RU,2020-02-18 05:32:52,43.16,46.65,34.72,69,4,0.96,clear sky,0.0,0.0
Entebbe,UG,2020-02-18 05:32:52,0.06,32.45,75.42,69,81,6.38,light rain,1.31,0.0
Esperance,AU,2020-02-18 05:29:18,-33.87,121.9,77.0,31,12,11.41,few clouds,0.0,0.0
Essex,US,2020-02-18 05:32:52,40.78,-74.22,41.0,55,1,8.05,clear sky,0.0,0.0
'Ewa Beach,US,2020-02-18 05:29:12,21.32,-158.01,73.4,82,90,14.27,light intensity drizzle,0.0,0.0
Faanui,PF,2020-02-18 05:32:53,-16.48,-151.75,82.53,76,85,13.22,light rain,0.44,0.0
Fairbanks,US,2020-02-18 05:28:36,64.84,-147.72,15.01,84,90,2.57,overcast clouds,0.0,0.0
Farafangana,MG,2020-02-18 05:32:53,-22.82,47.83,79.41,81,56,14.65,light rain,0.62,0.0
Fenoarivo,MG,2020-02-18 05:32:53,-18.93,47.44,69.8,77,75,10.29,broken clouds,0.0,0.0
Flin Flon,CA,2020-02-18 05:32:54,54.77,-101.86,-16.94,91,67,8.81,broken clouds,0.0,0.0
Flinders,AU,2020-02-18 05:32:54,-34.58,150.86,90.0,78,75,8.05,broken clouds,0.0,0.0
Fortuna,US,2020-02-18 05:32:54,40.6,-124.16,46.0,100,1,1.16,clear sky,0.0,0.0
Gamba,GA,2020-02-18 05:32:54,-2.65,10.0,77.74,86,95,3.69,overcast clouds,0.0,0.0
Kiryat Gat,IL,2020-02-18 05:29:03,31.61,34.76,53.6,81,40,3.36,scattered clouds,0.0,0.0
George,ZA,2020-02-18 05:32:55,-33.96,22.46,64.4,93,40,6.93,scattered clouds,0.0,0.0
George Town,MY,2020-02-18 05:29:58,5.41,100.34,89.6,59,20,2.24,few clouds,0.0,0.0
Geraldton,AU,2020-02-18 05:32:55,-28.77,114.6,104.0,21,100,9.17,light rain,1.44,0.0
Gillette,US,2020-02-18 05:32:55,44.29,-105.5,19.4,85,1,10.36,clear sky,0.0,0.0
Glendive,US,2020-02-18 05:32:55,47.11,-104.71,23.0,92,90,8.05,light snow,0.0,0.0
Goderich,CA,2020-02-18 05:28:41,43.75,-81.72,28.99,88,100,21.0,snow,0.0,2.06
Golyshmanovo,RU,2020-02-18 05:32:56,56.4,68.37,17.58,89,92,22.55,overcast clouds,0.0,0.0
Gornyy,RU,2020-02-18 05:32:56,55.12,83.91,19.27,89,99,14.85,light snow,0.0,0.13
Goundi,TD,2020-02-18 05:32:56,9.36,17.37,70.9,19,0,3.29,clear sky,0.0,0.0
Gravdal,NO,2020-02-18 05:32:57,68.12,13.5,35.6,94,90,11.41,light snow,0.0,0.0
Grindavik,IS,2020-02-18 05:32:57,63.84,-22.43,32.0,73,75,11.41,broken clouds,0.0,0.0
Guamuchil,MX,2020-02-18 05:32:57,25.47,-108.1,60.01,73,37,1.01,scattered clouds,0.0,0.0
Guerrero Negro,MX,2020-02-18 05:32:57,27.98,-114.06,58.6,89,73,8.3,broken clouds,0.0,0.0
Gusau,NG,2020-02-18 05:32:57,12.16,6.66,64.38,23,99,12.46,overcast clouds,0.0,0.0
Half Moon Bay,US,2020-02-18 05:30:52,37.46,-122.43,57.2,87,75,3.36,mist,0.0,0.0
Halifax,CA,2020-02-18 05:32:58,44.65,-63.57,25.0,61,5,18.34,clear sky,0.0,0.0
Hambantota,LK,2020-02-18 05:32:58,6.12,81.12,84.2,62,0,9.17,clear sky,0.0,0.0
Kumul,CN,2020-02-18 05:32:44,42.8,93.45,28.6,33,0,3.69,clear sky,0.0,0.0
Hamilton,US,2020-02-18 05:32:36,39.18,-84.53,55.0,65,75,4.7,broken clouds,0.0,0.0
Hammerfest,NO,2020-02-18 05:32:59,70.66,23.68,32.0,93,75,36.91,broken clouds,0.0,0.0
Hamza,UZ,2020-02-18 05:32:59,40.43,71.5,33.8,94,90,1.77,snow,0.0,0.0
Harper,LR,2020-02-18 05:30:33,4.38,-7.72,75.72,95,1,2.57,clear sky,0.0,0.0
Hasaki,JP,2020-02-18 05:32:59,35.73,140.83,55.0,25,20,11.41,few clouds,0.0,0.0
Hastings,GB,2020-02-18 05:30:04,50.86,0.57,44.01,80,0,11.41,clear sky,0.0,0.0
Avanuorri,NO,2020-02-18 05:33:00,71.0,24.66,33.8,74,75,21.92,light snow,0.0,0.0
Havre-Saint-Pierre,CA,2020-02-18 05:33:00,50.23,-63.6,-7.6,63,1,8.81,clear sky,0.0,0.0
Hermanus,ZA,2020-02-18 05:33:00,-34.42,19.23,69.01,79,33,15.01,scattered clouds,0.0,0.0
Hervey Bay,AU,2020-02-18 05:33:00,-25.3,152.85,89.01,62,40,12.75,scattered clouds,0.0,0.0
Hilo,US,2020-02-18 05:33:01,19.73,-155.09,73.4,69,90,5.82,light rain,0.0,0.0
Hiroshima,JP,2020-02-18 05:29:22,34.4,132.46,44.6,48,75,12.75,broken clouds,0.0,0.0
Hithadhoo,MV,2020-02-18 05:33:01,-0.6,73.08,84.22,70,40,7.92,scattered clouds,0.0,0.0
Hluti,SZ,2020-02-18 05:33:01,-27.22,31.62,75.2,88,17,2.24,light rain,0.19,0.0
Hobart,AU,2020-02-18 05:33:01,-42.88,147.33,66.99,52,75,17.22,broken clouds,0.0,0.0
Hobyo,SO,2020-02-18 05:33:02,5.35,48.53,81.84,58,77,17.65,broken clouds,0.0,0.0
Hofn,IS,2020-02-18 05:33:02,64.25,-15.21,39.65,80,98,22.55,light snow,0.0,0.19
Hualmay,PE,2020-02-18 05:33:02,-11.1,-77.61,69.33,84,93,2.95,light rain,0.19,0.0
Huanren,CN,2020-02-18 05:33:02,41.26,125.37,17.8,81,0,2.91,clear sky,0.0,0.0
Huarmey,PE,2020-02-18 05:33:02,-10.07,-78.15,70.38,80,97,2.57,overcast clouds,0.0,0.0
Huilong,CN,2020-02-18 05:33:03,31.81,121.66,48.0,35,7,6.87,clear sky,0.0,0.0
Hurghada,EG,2020-02-18 05:33:03,27.26,33.81,59.0,58,0,11.41,clear sky,0.0,0.0
Husavik,IS,2020-02-18 05:33:03,66.04,-17.34,32.0,94,90,4.7,light snow,0.0,0.0
Idar-Oberstein,DE,2020-02-18 05:33:03,49.7,7.3,44.01,75,90,16.11,overcast clouds,0.0,0.0
Igrim,RU,2020-02-18 05:33:03,63.19,64.42,27.99,94,100,16.64,snow,0.0,2.38
Ilulissat,GL,2020-02-18 05:33:04,69.22,-51.1,8.6,60,91,9.17,overcast clouds,0.0,0.0
Iqaluit,CA,2020-02-18 05:32:14,63.75,-68.51,-29.0,66,5,3.56,clear sky,0.0,0.0
Iracoubo,GF,2020-02-18 05:33:04,5.48,-53.2,79.3,77,90,19.48,light rain,0.19,0.0
Isangel,VU,2020-02-18 05:33:04,-19.55,169.27,86.0,70,20,11.41,few clouds,0.0,0.0
Istok,XK,2020-02-18 05:33:05,42.78,20.49,37.0,79,21,3.71,few clouds,0.0,0.0
Itoman,JP,2020-02-18 05:33:05,26.12,127.67,55.4,62,75,17.22,light rain,0.0,0.0
Ixtapa,MX,2020-02-18 05:33:05,20.7,-105.2,71.01,94,5,2.24,clear sky,0.0,0.0
Jalu,LY,2020-02-18 05:33:05,29.03,21.55,50.29,71,2,9.84,clear sky,0.0,0.0
Jamestown,US,2020-02-18 05:29:21,42.1,-79.24,39.2,59,90,11.41,overcast clouds,0.0,0.0
Jiangyou,CN,2020-02-18 05:33:06,31.77,104.72,45.5,38,100,5.01,overcast clouds,0.0,0.0
Jinchang,CN,2020-02-18 05:33:06,38.5,102.17,29.82,26,0,5.35,clear sky,0.0,0.0
Jizan,SA,2020-02-18 05:33:06,17.33,42.67,80.6,74,20,4.7,few clouds,0.0,0.0
Joigny,FR,2020-02-18 05:33:06,47.98,3.4,39.2,93,2,12.75,clear sky,0.0,0.0
Jutai,BR,2020-02-18 05:33:06,-5.18,-68.9,73.11,96,100,0.31,overcast clouds,0.0,0.0
Kabalo,CD,2020-02-18 05:33:06,-6.05,26.92,71.04,94,70,2.66,broken clouds,0.0,0.0
Kabinda,CD,2020-02-18 05:33:07,-6.13,24.48,69.46,87,97,3.89,overcast clouds,0.0,0.0
Kafanchan,NG,2020-02-18 05:33:07,9.58,8.3,55.4,32,97,9.17,haze,0.0,0.0
Kahului,US,2020-02-18 05:31:41,20.89,-156.47,73.4,69,40,16.11,scattered clouds,0.0,0.0
Kaitangata,NZ,2020-02-18 05:33:07,-46.28,169.85,62.01,92,48,4.0,light rain,0.44,0.0
Kamaishi,JP,2020-02-18 05:33:07,39.27,141.88,33.8,62,75,6.93,light shower snow,0.0,0.0
Kamenka,RU,2020-02-18 05:31:05,51.32,42.77,33.01,91,100,8.01,overcast clouds,0.0,0.0
Kande,TG,2020-02-18 05:33:08,9.96,1.04,68.54,15,4,4.21,clear sky,0.0,0.0
Kanniyakumari,IN,2020-02-18 05:33:08,8.08,77.57,80.83,64,55,26.8,broken clouds,0.0,0.0
Kapaa,US,2020-02-18 05:33:08,22.08,-159.32,77.0,78,40,18.34,scattered clouds,0.0,0.0
Kargasok,RU,2020-02-18 05:33:09,59.06,80.86,13.93,91,28,10.09,scattered clouds,0.0,0.0
Kathu,TH,2020-02-18 05:32:52,7.92,98.33,86.0,62,40,11.41,scattered clouds,0.0,0.0
Kattivakkam,IN,2020-02-18 05:33:09,13.22,80.32,84.2,51,20,5.82,haze,0.0,0.0
Kavaratti,IN,2020-02-18 05:33:08,10.57,72.64,84.2,74,20,4.7,few clouds,0.0,0.0
Kavieng,PG,2020-02-18 05:33:09,-2.57,150.8,83.55,79,100,13.22,moderate rain,5.25,0.0
Kawalu,ID,2020-02-18 05:33:10,-7.38,108.21,81.54,70,38,5.32,light rain,2.06,0.0
Kedrovyy,RU,2020-02-18 05:33:10,56.17,91.82,17.6,85,40,4.47,mist,0.0,0.0
Kerman,IR,2020-02-18 05:33:10,30.28,57.08,48.2,23,100,9.17,overcast clouds,0.0,0.0
Keti Bandar,PK,2020-02-18 05:33:10,24.14,67.45,85.15,20,90,6.89,overcast clouds,0.0,0.0
Khani,GE,2020-02-18 05:33:10,41.96,42.96,46.4,45,0,27.51,clear sky,0.0,0.0
Khatanga,RU,2020-02-18 05:33:11,71.97,102.5,-3.73,86,32,8.12,scattered clouds,0.0,0.0
Kidal,ML,2020-02-18 05:33:11,18.44,1.41,63.73,19,50,10.02,scattered clouds,0.0,0.0
Kirando,TZ,2020-02-18 05:33:11,-7.42,30.6,74.39,76,98,4.45,light rain,1.62,0.0
Kiunga,PG,2020-02-18 05:33:11,-6.12,141.29,90.01,59,56,3.98,light rain,0.94,0.0
Klaksvik,FO,2020-02-18 05:32:59,62.23,-6.59,41.0,80,96,17.22,light rain,0.0,0.0
Kloulklubed,PW,2020-02-18 05:33:12,7.04,134.26,86.0,66,75,8.05,broken clouds,0.0,0.0
Kodiak,US,2020-02-18 05:32:39,57.79,-152.41,37.4,86,90,13.87,light rain,0.0,0.0
Kolda,SN,2020-02-18 05:33:12,12.88,-14.95,67.68,42,65,0.49,broken clouds,0.0,0.0
Korla,CN,2020-02-18 05:33:12,41.76,86.15,36.0,94,58,1.01,broken clouds,0.0,0.0
Korsakovo,RU,2020-02-18 05:33:12,53.27,37.36,33.24,99,100,10.16,light rain,2.31,0.0
Kozmodemyansk,RU,2020-02-18 05:33:12,56.34,46.57,33.8,93,75,17.9,broken clouds,0.0,0.0
Kralendijk,BQ,2020-02-18 05:29:27,12.15,-68.27,80.6,74,89,19.46,light rain,0.13,0.0
Krasnooktyabrskiy,RU,2020-02-18 05:33:13,44.93,38.37,35.01,92,0,4.47,clear sky,0.0,0.0
Krasnosel'kup,RU,2020-02-18 05:33:02,65.7,82.47,11.1,91,66,20.65,broken clouds,0.0,0.0
Krasnovka,RU,2020-02-18 05:33:13,48.82,40.09,28.53,91,96,9.91,overcast clouds,0.0,0.0
Kruisfontein,ZA,2020-02-18 05:33:13,-34.0,24.73,65.03,90,46,14.76,light rain,0.56,0.0
Kuah,MY,2020-02-18 05:33:14,6.33,99.84,91.4,66,20,8.05,few clouds,0.0,0.0
Kununurra,AU,2020-02-18 05:33:14,-15.77,128.73,100.4,37,43,5.82,scattered clouds,0.0,0.0
Kurilsk,RU,2020-02-18 05:33:14,45.23,147.88,27.34,81,100,2.71,light snow,0.0,0.19
Kurumkan,RU,2020-02-18 05:33:14,54.3,110.3,9.68,91,13,2.57,few clouds,0.0,0.0
Quryq,KZ,2020-02-18 05:33:14,43.2,51.65,43.11,68,0,25.59,clear sky,0.0,0.0
La Rioja,ES,2020-02-18 05:31:42,42.25,-2.5,42.8,81,75,5.82,broken clouds,0.0,0.0
La Ronge,CA,2020-02-18 05:33:15,55.1,-105.28,-15.57,92,65,8.48,broken clouds,0.0,0.0
Labuhan,ID,2020-02-18 05:33:15,-6.88,112.21,87.12,68,62,7.56,broken clouds,0.0,0.0
Lagoa,PT,2020-02-18 05:33:15,39.05,-27.98,56.16,59,29,8.37,scattered clouds,0.0,0.0
Laguna,US,2020-02-18 05:33:15,38.42,-121.42,57.99,30,1,12.75,clear sky,0.0,0.0
Langham,CA,2020-02-18 05:33:15,52.37,-106.97,-16.01,75,5,10.29,clear sky,0.0,0.0
Laas,IT,2020-02-18 05:33:16,46.62,10.7,37.99,92,90,6.93,fog,0.0,0.0
Launceston,AU,2020-02-18 05:33:16,-41.45,147.17,72.0,33,90,9.17,light intensity shower rain,0.0,0.0
Lavrentiya,RU,2020-02-18 05:33:00,65.58,-171.0,-1.79,86,100,16.08,light snow,0.0,0.38
Lebu,CL,2020-02-18 05:33:16,-37.62,-73.65,49.42,80,0,6.15,clear sky,0.0,0.0
Leeton,AU,2020-02-18 05:33:16,-34.57,146.4,93.2,20,75,20.8,broken clouds,0.0,0.0
Leningradskiy,RU,2020-02-18 05:33:16,69.38,178.42,-13.07,98,96,7.05,overcast clouds,0.0,0.0
Lethem,GY,2020-02-18 05:33:17,3.38,-59.8,79.38,64,34,12.84,scattered clouds,0.0,0.0
Limon,CR,2020-02-18 05:33:17,10.0,-83.03,73.99,94,47,4.18,light rain,0.88,0.0
Linares,CL,2020-02-18 05:30:10,-35.85,-71.6,52.16,41,0,2.42,clear sky,0.0,0.0
Lindi,TZ,2020-02-18 05:33:17,-10.0,39.72,78.8,94,40,5.06,scattered clouds,0.0,0.0
Lompoc,US,2020-02-18 05:32:07,34.64,-120.46,57.99,71,1,5.82,clear sky,0.0,0.0
Longyearbyen,SJ,2020-02-18 05:33:18,78.22,15.64,3.2,59,75,8.05,broken clouds,0.0,0.0
Luanda,AO,2020-02-18 05:30:11,-8.84,13.23,78.8,94,75,4.7,broken clouds,0.0,0.0
Luena,AO,2020-02-18 05:33:18,-11.78,19.92,65.57,86,88,3.76,overcast clouds,0.0,0.0
Lukovetskiy,RU,2020-02-18 05:33:19,64.3,41.92,35.6,100,90,8.95,light rain and snow,0.0,0.0
Luyang,CN,2020-02-18 05:33:19,27.62,110.1,59.02,42,14,1.19,few clouds,0.0,0.0
Mackay,AU,2020-02-18 05:28:31,-21.15,149.2,91.0,70,40,10.29,scattered clouds,0.0,0.0
Mackenzie,CA,2020-02-18 05:33:19,55.3,-123.17,3.2,84,1,1.77,clear sky,0.0,0.0
Madang,PG,2020-02-18 05:33:20,-5.22,145.8,82.47,82,36,34.16,scattered clouds,0.0,0.0
Mahebourg,MU,2020-02-18 05:33:20,-20.41,57.7,82.99,74,40,9.17,shower rain,0.0,0.0
Mahon,ES,2020-02-18 05:33:20,39.89,4.27,53.6,66,18,29.97,few clouds,0.0,0.0
Makakilo City,US,2020-02-18 05:33:20,21.35,-158.09,73.4,82,90,14.27,light intensity drizzle,0.0,0.0
Maksatikha,RU,2020-02-18 05:33:20,57.8,35.88,35.37,81,93,11.54,overcast clouds,0.0,0.0
Mandan,US,2020-02-18 05:33:07,46.83,-100.89,12.99,78,20,3.36,few clouds,0.0,0.0
Mandurah,AU,2020-02-18 05:30:37,-32.55,115.7,89.01,30,100,12.75,overcast clouds,0.0,0.0
Mansa,IN,2020-02-18 05:33:21,29.98,75.38,77.63,15,0,7.05,clear sky,0.0,0.0
Mar del Plata,AR,2020-02-18 05:32:29,-38.0,-57.56,66.99,88,90,10.29,overcast clouds,0.0,0.0
Maragogi,BR,2020-02-18 05:33:21,-9.01,-35.22,82.09,78,41,14.63,light rain,0.5,0.0
Marawi,PH,2020-02-18 05:33:22,8.0,124.29,82.0,78,63,5.01,light rain,0.19,0.0
Mareeba,AU,2020-02-18 05:33:22,-17.0,145.43,93.2,56,37,13.87,moderate rain,5.25,0.0
Margate,GB,2020-02-18 05:33:07,51.38,1.39,44.01,80,7,13.87,clear sky,0.0,0.0
Marigot,MF,2020-02-18 05:33:22,18.07,-63.08,78.8,74,40,8.05,scattered clouds,0.0,0.0
Mersa Matruh,EG,2020-02-18 05:33:23,31.35,27.25,51.8,81,75,3.36,broken clouds,0.0,0.0
Marsabit,KE,2020-02-18 05:33:23,2.33,37.99,77.2,70,1,25.99,clear sky,0.0,0.0
Masuguru,TZ,2020-02-18 05:33:23,-11.37,38.42,79.41,86,74,4.59,broken clouds,0.0,0.0
Matadi,CD,2020-02-18 05:33:23,-5.82,13.45,74.25,91,62,2.57,broken clouds,0.0,0.0
Mataura,NZ,2020-02-18 05:32:36,-46.19,168.86,59.0,89,99,5.01,light rain,2.63,0.0
Mayo,US,2020-02-18 05:33:23,38.89,-76.51,44.6,80,1,6.76,clear sky,0.0,0.0
Mayor Pablo Lagerenza,PY,2020-02-18 05:33:24,-19.93,-60.77,84.67,57,71,10.69,broken clouds,0.0,0.0
Mbuji-Mayi,CD,2020-02-18 05:33:24,-6.15,23.6,71.04,87,95,3.58,overcast clouds,0.0,0.0
Mecca,SA,2020-02-18 05:33:24,21.43,39.83,72.45,67,3,1.45,clear sky,0.0,0.0
Merauke,ID,2020-02-18 05:33:24,-8.47,140.33,89.04,60,36,9.48,scattered clouds,0.0,0.0
Mercedes,AR,2020-02-18 05:33:24,-34.65,-59.43,70.0,86,68,4.0,broken clouds,0.0,0.0
Metro,ID,2020-02-18 05:30:27,-5.11,105.31,87.55,67,51,11.12,broken clouds,0.0,0.0
Middle Island,US,2020-02-18 05:33:25,40.88,-72.94,37.4,70,1,13.4,clear sky,0.0,0.0
Mildura,AU,2020-02-18 05:33:25,-34.2,142.15,81.0,28,90,17.22,overcast clouds,0.0,0.0
Misratah,LY,2020-02-18 05:33:25,32.38,15.09,58.17,73,43,8.03,light rain,0.31,0.0
Mitsamiouli,KM,2020-02-18 05:33:26,-11.38,43.28,80.6,83,75,5.82,broken clouds,0.0,0.0
Mitu,CO,2020-02-18 05:33:14,1.2,-70.17,74.32,87,35,1.95,scattered clouds,0.0,0.0
Mizan Teferi,ET,2020-02-18 05:33:26,6.98,35.58,74.55,61,46,2.39,light rain,0.94,0.0
Mocuba,MZ,2020-02-18 05:33:26,-16.84,36.99,81.01,82,19,1.52,few clouds,0.0,0.0
Moron,AR,2020-02-18 05:33:27,-34.65,-58.62,71.6,94,75,9.17,broken clouds,0.0,0.0
Morondava,MG,2020-02-18 05:33:27,-20.28,44.28,79.36,86,100,3.56,overcast clouds,0.0,0.0
Mount Isa,AU,2020-02-18 05:33:27,-20.73,139.5,105.8,13,0,8.05,clear sky,0.0,0.0
Mugumu,TZ,2020-02-18 05:33:27,-1.85,34.7,70.83,70,0,7.29,clear sky,0.0,0.0
Mundo Nuevo (Ojo de Agua),MX,2020-02-18 05:33:28,18.7,-95.5,69.73,88,0,1.34,clear sky,0.0,0.0
Muroto,JP,2020-02-18 05:33:28,33.28,134.15,48.2,39,40,10.29,scattered clouds,0.0,0.0
Murupara,NZ,2020-02-18 05:33:28,-38.47,176.7,72.0,76,100,4.65,light rain,1.19,0.0
Muzaffarabad,PK,2020-02-18 05:30:51,34.37,73.47,53.24,25,69,3.71,broken clouds,0.0,0.0
Mvuma,ZW,2020-02-18 05:33:29,-19.28,30.53,71.19,73,2,7.29,clear sky,0.0,0.0
Nador,MA,2020-02-18 05:33:29,35.17,-2.93,62.6,87,1,5.82,clear sky,0.0,0.0
Namatanai,PG,2020-02-18 05:32:54,-3.67,152.43,84.67,74,100,18.5,light rain,0.31,0.0
Mossamedes,AO,2020-02-18 05:33:29,-15.2,12.15,75.0,75,25,10.13,scattered clouds,0.0,0.0
Nanortalik,GL,2020-02-18 05:32:49,60.14,-45.24,20.21,60,53,8.61,light snow,0.0,0.94
Nantucket,US,2020-02-18 05:33:00,41.28,-70.1,32.0,68,1,6.93,clear sky,0.0,0.0
Naze,JP,2020-02-18 05:33:30,28.37,129.48,57.2,62,75,12.75,light intensity shower rain,0.0,0.0
Nemuro,JP,2020-02-18 05:33:30,43.32,145.57,30.2,80,75,8.05,light shower snow,0.0,0.0
New Norfolk,AU,2020-02-18 05:33:30,-42.78,147.06,66.99,52,75,17.22,broken clouds,0.0,0.0
Ngama,TD,2020-02-18 05:33:30,11.78,17.17,66.34,26,0,10.13,clear sky,0.0,0.0
Nichinan,JP,2020-02-18 05:33:31,31.6,131.37,50.0,37,20,19.46,few clouds,0.0,0.0
Nicoya,CR,2020-02-18 05:30:02,10.15,-85.45,82.4,58,0,23.04,clear sky,0.0,0.0
Nikolayevka,RU,2020-02-18 05:33:31,53.13,47.2,30.02,84,100,18.48,overcast clouds,0.0,0.0
Nikolskoye,RU,2020-02-18 05:32:35,59.7,30.79,41.0,80,90,22.37,overcast clouds,0.0,0.0
Nola,IT,2020-02-18 05:33:32,40.92,14.53,53.01,93,40,1.12,scattered clouds,0.0,0.0
Nome,US,2020-02-18 05:33:10,64.5,-165.41,19.99,85,90,12.75,light snow,0.0,0.0
Norman Wells,CA,2020-02-18 05:33:32,65.28,-126.83,-22.0,74,5,3.36,clear sky,0.0,0.0
North Platte,US,2020-02-18 05:31:57,41.12,-100.77,28.0,79,1,5.82,clear sky,0.0,0.0
Nouakchott,MR,2020-02-18 05:32:42,18.09,-15.98,75.2,16,16,11.41,few clouds,0.0,0.0
Noumea,NC,2020-02-18 05:33:33,-22.28,166.46,84.99,69,12,3.36,few clouds,0.0,0.0
Novouralsk,RU,2020-02-18 05:33:33,57.24,60.08,30.58,87,100,19.64,light snow,0.0,0.25
Nurota,UZ,2020-02-18 05:33:33,40.56,65.69,35.6,69,75,18.34,broken clouds,0.0,0.0
Nuuk,GL,2020-02-18 05:33:33,64.18,-51.72,14.0,72,100,10.29,overcast clouds,0.0,0.0
Nynaeshamn,SE,2020-02-18 05:33:33,58.9,17.95,45.0,70,37,12.75,scattered clouds,0.0,0.0
Nyrob,RU,2020-02-18 05:33:33,60.73,56.72,34.54,92,97,13.58,light snow,0.0,0.38
Ocampo,MX,2020-02-18 05:33:34,21.65,-101.5,61.2,43,74,6.24,broken clouds,0.0,0.0
Oodweyne,SO,2020-02-18 05:33:34,9.41,45.06,69.78,66,0,5.17,clear sky,0.0,0.0
Okhotsk,RU,2020-02-18 05:33:34,59.38,143.3,1.65,81,73,4.88,broken clouds,0.0,0.0
Ola,RU,2020-02-18 05:33:34,59.58,151.28,0.99,69,0,1.95,clear sky,0.0,0.0
Olafsvik,IS,2020-02-18 05:33:34,64.89,-23.71,32.77,82,100,18.77,overcast clouds,0.0,0.0
Olari,RO,2020-02-18 05:33:35,46.38,21.55,45.0,75,40,8.05,scattered clouds,0.0,0.0
Olavarria,AR,2020-02-18 05:33:35,-36.89,-60.32,61.0,87,33,3.0,scattered clouds,0.0,0.0
Onokhoy,RU,2020-02-18 05:33:35,51.93,108.07,-0.4,84,31,3.91,mist,0.0,0.0
Osorno,CL,2020-02-18 05:33:35,-40.57,-73.15,43.52,95,4,0.81,clear sky,0.0,0.0
Ostrovnoy,RU,2020-02-18 05:33:35,68.05,39.51,27.68,82,95,27.04,overcast clouds,0.0,0.0
Owando,CG,2020-02-18 05:33:36,-0.48,15.9,72.01,96,100,2.44,light rain,2.38,0.0
Oytal,KZ,2020-02-18 05:33:36,42.91,73.27,30.02,94,100,7.34,light snow,0.0,0.75
Ozu,JP,2020-02-18 05:33:36,33.5,132.55,44.6,56,75,10.29,broken clouds,0.0,0.0
Pachino,IT,2020-02-18 05:33:36,36.72,15.09,46.0,86,89,2.24,overcast clouds,0.0,0.0
Pacific Grove,US,2020-02-18 05:29:48,36.62,-121.92,54.0,71,1,10.98,clear sky,0.0,0.0
Paphos,CY,2020-02-18 05:32:51,34.77,32.42,48.2,66,20,6.93,few clouds,0.0,0.0
Paita,PE,2020-02-18 05:33:37,-5.09,-81.11,75.54,77,34,10.31,scattered clouds,0.0,0.0
Palekastro,GR,2020-02-18 05:33:37,35.2,26.25,55.0,68,13,8.01,few clouds,0.0,0.0
Palana,RU,2020-02-18 05:32:37,59.12,159.97,-8.57,97,42,2.44,scattered clouds,0.0,0.0
Palmer,US,2020-02-18 05:33:37,42.16,-72.33,28.99,85,90,2.37,overcast clouds,0.0,0.0
Pangnirtung,CA,2020-02-18 05:33:38,66.15,-65.71,-28.03,100,100,2.51,overcast clouds,0.0,0.0
Pansoy,PH,2020-02-18 05:33:38,13.18,122.6,81.27,72,64,18.3,broken clouds,0.0,0.0
Parsabad,IR,2020-02-18 05:33:38,39.65,47.92,33.8,64,0,6.93,clear sky,0.0,0.0
Pasighat,IN,2020-02-18 05:33:38,28.07,95.33,74.32,54,67,2.93,light rain,0.44,0.0
Pastavy,BY,2020-02-18 05:33:38,55.12,26.83,36.57,87,65,11.21,broken clouds,0.0,0.0
Payo,ID,2020-02-18 05:33:39,-3.75,103.64,80.96,68,92,4.54,light rain,1.69,0.0
Peniche,PT,2020-02-18 05:32:46,39.36,-9.38,52.0,81,0,13.87,clear sky,0.0,0.0
Petalcingo,MX,2020-02-18 05:33:39,17.28,-92.45,68.5,76,0,2.62,clear sky,0.0,0.0
Petaluma,US,2020-02-18 05:32:50,38.23,-122.64,57.0,81,1,1.21,clear sky,0.0,0.0
Petrovsk-Zabaykal'skiy,RU,2020-02-18 05:33:39,51.27,108.84,20.91,73,57,3.06,broken clouds,0.0,0.0
Pevek,RU,2020-02-18 05:33:39,69.7,170.31,-12.82,99,100,4.0,overcast clouds,0.0,0.0
Piripiri,BR,2020-02-18 05:33:40,-4.27,-41.78,74.41,94,97,2.77,light rain,2.81,0.0
Pisco,PE,2020-02-18 05:33:40,-13.7,-76.22,73.0,88,20,9.17,few clouds,0.0,0.0
Pitimbu,BR,2020-02-18 05:33:40,-7.47,-34.81,78.8,94,75,4.7,broken clouds,0.0,0.0
Plettenberg Bay,ZA,2020-02-18 05:33:40,-34.05,23.37,67.96,85,19,11.41,few clouds,0.0,0.0
Pochutla,MX,2020-02-18 05:33:40,15.74,-96.47,81.97,69,0,11.07,clear sky,0.0,0.0
Poddorye,RU,2020-02-18 05:33:41,57.47,31.12,37.53,76,38,13.51,scattered clouds,0.0,0.0
Polson,US,2020-02-18 05:33:41,47.69,-114.16,28.0,79,90,5.82,overcast clouds,0.0,0.0
Ponazyrevo,RU,2020-02-18 05:33:41,58.36,46.31,34.7,95,100,12.75,overcast clouds,0.0,0.0
Ponnani,IN,2020-02-18 05:33:41,10.77,75.93,87.8,52,20,4.7,haze,0.0,0.0
Ponta Delgada,PT,2020-02-18 05:32:12,37.73,-25.67,53.6,71,75,4.7,broken clouds,0.0,0.0
Ponta do Sol,PT,2020-02-18 05:32:35,32.67,-17.1,62.6,82,75,18.34,broken clouds,0.0,0.0
Poplar Bluff,US,2020-02-18 05:33:42,36.76,-90.39,55.4,87,90,1.97,moderate rain,0.0,0.0
Port Alfred,ZA,2020-02-18 05:33:42,-33.59,26.89,69.01,87,100,4.0,light rain,0.19,0.0
Port Augusta,AU,2020-02-18 05:33:42,-32.5,137.77,73.4,49,40,27.51,scattered clouds,0.0,0.0
Port Blair,IN,2020-02-18 05:33:00,11.67,92.75,79.59,66,22,10.25,few clouds,0.0,0.0
Port Elizabeth,ZA,2020-02-18 05:29:17,-33.92,25.57,68.0,82,90,8.05,overcast clouds,0.0,0.0
Port Hardy,CA,2020-02-18 05:33:13,50.7,-127.42,32.0,94,5,9.17,clear sky,0.0,0.0
Port Hedland,AU,2020-02-18 05:33:43,-20.32,118.57,104.0,26,3,8.05,clear sky,0.0,0.0
Port Keats,AU,2020-02-18 05:33:43,-14.25,129.55,88.3,72,39,10.71,scattered clouds,0.0,0.0
Port Macquarie,AU,2020-02-18 05:33:43,-31.43,152.92,91.0,48,38,11.41,scattered clouds,0.0,0.0
Port-Gentil,GA,2020-02-18 05:33:43,-0.72,8.78,81.12,82,100,12.75,light rain,0.5,0.0
Porto Torres,IT,2020-02-18 05:33:44,40.84,8.4,50.0,100,20,1.12,few clouds,0.0,0.0
Prado,BR,2020-02-18 05:33:44,-17.34,-39.22,79.84,79,17,16.89,light rain,1.31,0.0
Praia da Vitoria,PT,2020-02-18 05:33:44,38.73,-27.07,50.0,87,40,8.55,scattered clouds,0.0,0.0
Prainha,BR,2020-02-18 05:33:44,-1.8,-53.48,75.42,84,81,4.18,broken clouds,0.0,0.0
Provideniya,RU,2020-02-18 05:33:44,64.38,-173.3,10.4,78,90,20.13,overcast clouds,0.0,0.0
Puerto Ayacucho,VE,2020-02-18 05:33:45,5.66,-67.62,76.19,75,40,2.01,scattered clouds,0.0,0.0
Puerto Ayora,EC,2020-02-18 05:33:45,-0.74,-90.35,77.29,83,16,5.44,few clouds,0.0,0.0
Puerto Leguizamo,CO,2020-02-18 05:33:45,-0.19,-74.78,73.27,95,53,1.95,broken clouds,0.0,0.0
Punta Arenas,CL,2020-02-18 05:33:45,-53.15,-70.92,48.2,70,87,24.16,light rain,0.38,0.0
Puro,PH,2020-02-18 05:33:45,12.48,123.38,82.35,65,58,17.16,broken clouds,0.0,0.0
Qaanaaq,GL,2020-02-18 05:33:45,77.48,-69.36,-10.91,62,55,3.53,broken clouds,0.0,0.0
Qalyub,EG,2020-02-18 05:33:46,30.18,31.21,53.6,87,75,4.7,mist,0.0,0.0
Qaqortoq,GL,2020-02-18 05:33:46,60.72,-46.03,12.2,43,52,4.7,broken clouds,0.0,0.0
Raca,RS,2020-02-18 05:33:46,44.23,20.98,28.4,100,45,3.87,scattered clouds,0.0,0.0
Rajapalaiyam,IN,2020-02-18 05:33:46,9.45,77.57,80.64,40,49,5.95,scattered clouds,0.0,0.0
Ranong,TH,2020-02-18 05:33:47,9.97,98.63,84.2,74,75,5.82,broken clouds,0.0,0.0
Rapid Valley,US,2020-02-18 05:33:47,44.06,-103.15,23.0,79,40,5.82,scattered clouds,0.0,0.0
Rexburg,US,2020-02-18 05:33:04,43.83,-111.79,6.8,91,40,4.7,scattered clouds,0.0,0.0
Ribeira Grande,PT,2020-02-18 05:33:47,38.52,-28.7,52.84,70,82,7.25,broken clouds,0.0,0.0
Richmond,US,2020-02-18 05:29:30,37.55,-77.46,44.01,86,1,3.36,clear sky,0.0,0.0
Rikitea,PF,2020-02-18 05:33:47,-23.12,-134.97,79.47,80,99,14.12,overcast clouds,0.0,0.0
Rincon,US,2020-02-18 05:31:44,32.3,-81.24,59.0,93,90,5.82,overcast clouds,0.0,0.0
Rio Gallegos,AR,2020-02-18 05:33:48,-51.62,-69.22,53.6,46,45,19.46,scattered clouds,0.0,0.0
Riyadh,SA,2020-02-18 05:33:28,24.69,46.72,60.8,11,40,2.24,scattered clouds,0.0,0.0
Road Town,VG,2020-02-18 05:33:48,18.42,-64.62,77.0,78,75,8.05,broken clouds,0.0,0.0
Roald,NO,2020-02-18 05:33:48,62.58,6.13,42.01,86,100,21.92,light rain,0.0,0.0
Rocha,UY,2020-02-18 05:33:49,-34.48,-54.33,74.12,89,33,17.29,moderate rain,3.94,0.0
Rodrigues Alves,BR,2020-02-18 05:33:49,-7.74,-72.65,73.06,89,100,1.16,overcast clouds,0.0,0.0
Ronneby,SE,2020-02-18 05:33:49,56.21,15.28,42.8,87,75,11.41,light intensity shower rain,0.0,0.0
Rorvik,NO,2020-02-18 05:33:49,64.86,11.24,42.26,78,62,29.71,light rain,0.81,0.0
Sabancuy,MX,2020-02-18 05:33:49,18.97,-91.18,71.42,70,0,5.64,clear sky,0.0,0.0
Sabzevar,IR,2020-02-18 05:33:32,36.21,57.68,44.13,64,25,12.64,scattered clouds,0.0,0.0
Saint Anthony,US,2020-02-18 05:33:50,45.02,-93.22,28.4,79,90,16.11,light snow,0.0,0.0
Saint George,US,2020-02-18 05:30:53,37.1,-113.58,50.0,29,1,23.04,clear sky,0.0,0.0
Saint-Augustin,CA,2020-02-18 05:33:50,51.23,-58.65,-2.25,81,44,12.15,scattered clouds,0.0,0.0
Saint-Joseph,RE,2020-02-18 05:33:51,-21.37,55.62,82.4,74,75,20.8,broken clouds,0.0,0.0
Saint-Paul,RE,2020-02-18 05:33:51,-21.01,55.27,82.4,69,90,17.22,overcast clouds,0.0,0.0
Saint-Philippe,RE,2020-02-18 05:32:37,-21.36,55.77,82.4,74,75,20.8,broken clouds,0.0,0.0
Sakakah,SA,2020-02-18 05:33:51,29.97,40.21,46.4,75,40,5.82,scattered clouds,0.0,0.0
Salalah,OM,2020-02-18 05:33:51,17.02,54.09,73.4,64,20,3.36,few clouds,0.0,0.0
Saldanha,ZA,2020-02-18 05:33:51,-33.01,17.94,60.8,77,0,8.05,clear sky,0.0,0.0
Salme,NP,2020-02-18 05:33:52,28.04,85.09,62.6,67,20,2.24,haze,0.0,0.0
Sambava,MG,2020-02-18 05:33:52,-14.27,50.17,79.18,93,100,2.35,light rain,2.0,0.0
San Andres,CO,2020-02-18 05:29:06,12.58,-81.7,80.6,78,40,16.11,scattered clouds,0.0,0.0
San Cristobal,VE,2020-02-18 05:33:52,7.77,-72.22,78.8,65,20,4.7,few clouds,0.0,0.0
San Jose,US,2020-02-18 05:33:24,37.34,-121.89,57.2,50,40,2.75,scattered clouds,0.0,0.0
San Luis,AR,2020-02-18 05:33:53,-33.3,-66.34,64.89,38,31,8.77,scattered clouds,0.0,0.0
San Patricio,MX,2020-02-18 05:33:53,19.22,-104.7,76.75,74,0,8.16,clear sky,0.0,0.0
San Quintin,MX,2020-02-18 05:32:53,30.48,-115.95,56.14,88,0,0.78,clear sky,0.0,0.0
San Rafael,AR,2020-02-18 05:33:53,-34.62,-68.33,61.97,47,0,3.06,clear sky,0.0,0.0
San Rafael del Sur,NI,2020-02-18 05:33:53,11.85,-86.44,78.8,69,20,16.11,few clouds,0.0,0.0
San Remigio,PH,2020-02-18 05:33:54,11.08,123.94,84.67,59,1,13.38,clear sky,0.0,0.0
Sandwick,GB,2020-02-18 05:33:54,60.0,-1.25,42.8,81,20,31.09,shower rain,0.0,0.0
Sanmenxia,CN,2020-02-18 05:33:54,34.77,111.18,51.1,15,60,4.38,broken clouds,0.0,0.0
Santa Catalina,PH,2020-02-18 05:33:54,9.33,122.86,82.4,74,75,16.11,broken clouds,0.0,0.0
Santa Cruz de la Sierra,BO,2020-02-18 05:31:26,-17.8,-63.17,77.0,88,40,9.17,scattered clouds,0.0,0.0
Santa Cruz de Tenerife,ES,2020-02-18 05:33:54,28.47,-16.25,66.99,93,20,12.75,few clouds,0.0,0.0
Santa Isabel,BR,2020-02-18 05:33:55,-23.32,-46.22,73.4,100,20,5.82,few clouds,0.0,0.0
Santa Isabel do Rio Negro,BR,2020-02-18 05:33:55,-0.41,-65.02,74.17,98,28,0.6,light rain,1.0,0.0
Santa Vitoria do Palmar,BR,2020-02-18 05:33:55,-33.52,-53.37,76.23,91,73,11.14,light rain,0.62,0.0
Sao Filipe,CV,2020-02-18 05:33:55,14.9,-24.5,76.71,46,56,16.37,broken clouds,0.0,0.0
Sao Joao da Barra,BR,2020-02-18 05:33:55,-21.64,-41.05,77.47,86,65,15.37,broken clouds,0.0,0.0
Sao Jose da Coroa Grande,BR,2020-02-18 05:33:56,-8.9,-35.15,82.09,78,41,14.63,light rain,0.5,0.0
Saskylakh,RU,2020-02-18 05:33:56,71.92,114.08,4.15,89,100,5.21,overcast clouds,0.0,0.0
Savonlinna,FI,2020-02-18 05:33:56,61.87,28.92,39.2,86,90,18.34,overcast clouds,0.0,0.0
Seoul,KR,2020-02-18 05:29:51,37.57,126.98,33.8,34,1,3.36,clear sky,0.0,0.0
Sept-Iles,CA,2020-02-18 05:33:57,50.2,-66.38,-2.2,49,5,8.05,clear sky,0.0,0.0
Severo-Kuril'sk,RU,2020-02-18 05:33:57,50.68,156.12,14.49,84,100,4.12,overcast clouds,0.0,0.0
Shenjiamen,CN,2020-02-18 05:33:57,29.96,122.3,43.09,57,0,13.58,clear sky,0.0,0.0
Shieli,KZ,2020-02-18 05:33:57,44.17,66.75,30.29,51,0,14.92,clear sky,0.0,0.0
Shimoda,JP,2020-02-18 05:33:57,34.67,138.95,51.8,40,20,14.99,few clouds,0.0,0.0
Shingu,JP,2020-02-18 05:33:57,33.73,135.98,46.4,52,75,17.22,broken clouds,0.0,0.0
Shitanjing,CN,2020-02-18 05:33:58,39.23,106.34,40.1,15,0,2.42,clear sky,0.0,0.0
Sikasso,ML,2020-02-18 05:33:58,10.92,-7.0,65.39,13,0,2.19,clear sky,0.0,0.0
Sinor,IN,2020-02-18 05:33:58,21.92,73.33,75.2,50,0,3.36,clear sky,0.0,0.0
Sioux Lookout,CA,2020-02-18 05:30:50,50.1,-91.92,12.2,78,90,5.82,light snow,0.0,0.0
Sitka,US,2020-02-18 05:33:58,57.05,-135.33,37.4,93,90,8.05,overcast clouds,0.0,0.0
Skibbereen,IE,2020-02-18 05:33:58,51.55,-9.27,41.0,86,75,18.34,broken clouds,0.0,0.0
Skjervoy,NO,2020-02-18 05:33:59,70.03,20.97,33.8,74,75,18.34,broken clouds,0.0,0.0
Skwierzyna,PL,2020-02-18 05:33:59,52.6,15.51,44.6,75,75,13.87,broken clouds,0.0,0.0
Sola,VU,2020-02-18 05:33:59,-13.88,167.55,82.76,78,8,16.02,clear sky,0.0,0.0
Sompeta,IN,2020-02-18 05:33:59,18.93,84.6,84.85,34,0,6.38,clear sky,0.0,0.0
Sorland,NO,2020-02-18 05:33:59,67.67,12.69,33.8,96,90,11.41,light snow,0.0,0.0
Souillac,MU,2020-02-18 05:32:43,-20.52,57.52,82.99,74,40,9.17,shower rain,0.0,0.0
Soyo,AO,2020-02-18 05:34:00,-6.13,12.37,76.14,91,23,5.12,few clouds,0.0,0.0
Srednekolymsk,RU,2020-02-18 05:34:00,67.45,153.68,-7.87,97,91,6.91,overcast clouds,0.0,0.0
Sukumo,JP,2020-02-18 05:34:00,32.93,132.73,42.98,66,60,21.88,broken clouds,0.0,0.0
Sungaipenuh,ID,2020-02-18 05:34:00,-2.08,101.38,75.0,71,100,1.59,overcast clouds,0.0,0.0
Susehri,TR,2020-02-18 05:34:01,40.16,38.09,24.64,73,0,4.25,clear sky,0.0,0.0
Svetlaya,RU,2020-02-18 05:34:01,46.54,138.33,21.65,76,88,12.3,overcast clouds,0.0,0.0
Tabuk,PH,2020-02-18 05:32:31,17.42,121.44,70.41,79,90,15.84,light rain,0.25,0.0
Talara,PE,2020-02-18 05:34:01,-4.58,-81.27,74.35,89,67,15.35,broken clouds,0.0,0.0
Taldan,RU,2020-02-18 05:34:01,53.67,124.8,18.68,74,100,11.77,overcast clouds,0.0,0.0
Talnakh,RU,2020-02-18 05:34:02,69.49,88.4,14.0,92,40,33.55,scattered clouds,0.0,0.0
Taltal,CL,2020-02-18 05:32:29,-25.4,-70.48,60.76,91,60,5.17,broken clouds,0.0,0.0
Tamandare,BR,2020-02-18 05:34:02,-8.76,-35.1,82.09,78,41,14.63,light rain,0.5,0.0
Tangier,MA,2020-02-18 05:34:02,35.78,-5.81,59.0,100,75,1.12,broken clouds,0.0,0.0
Tasiilaq,GL,2020-02-18 05:32:42,65.61,-37.64,28.4,68,100,27.51,overcast clouds,0.0,0.0
Tateyama,JP,2020-02-18 05:34:03,34.98,139.87,55.99,40,20,14.99,few clouds,0.0,0.0
Tautira,PF,2020-02-18 05:34:03,-17.73,-149.15,84.2,70,20,6.93,shower rain,0.0,0.0
Te Anau,NZ,2020-02-18 05:34:03,-45.42,167.72,57.72,90,100,6.64,light rain,1.75,0.0
Teahupoo,PF,2020-02-18 05:34:03,-17.83,-149.27,84.2,70,20,6.93,shower rain,0.0,0.0
Tecpan,GT,2020-02-18 05:34:03,14.76,-90.99,57.2,93,20,13.87,few clouds,0.0,0.0
Teguise,ES,2020-02-18 05:34:04,29.06,-13.56,60.8,82,77,11.41,broken clouds,0.0,0.0
Tessalit,ML,2020-02-18 05:34:04,20.2,1.01,65.05,19,22,9.08,few clouds,0.0,0.0
Tessaoua,NE,2020-02-18 05:34:04,13.76,7.99,62.26,29,71,11.36,broken clouds,0.0,0.0
Thai Binh,VN,2020-02-18 05:34:04,20.45,106.33,66.2,37,95,6.93,overcast clouds,0.0,0.0
The Pas,CA,2020-02-18 05:34:04,53.83,-101.25,-7.6,63,1,12.75,clear sky,0.0,0.0
Thinadhoo,MV,2020-02-18 05:34:04,0.53,72.93,83.55,74,0,9.17,light rain,0.44,0.0
Thompson,CA,2020-02-18 05:30:28,55.74,-97.86,-14.8,68,5,9.17,clear sky,0.0,0.0
Tiksi,RU,2020-02-18 05:34:05,71.69,128.87,-8.57,92,99,7.2,overcast clouds,0.0,0.0
Tobias Barreto,BR,2020-02-18 05:34:05,-11.18,-38.0,72.57,93,1,3.85,clear sky,0.0,0.0
Tocache,PE,2020-02-18 05:34:05,-8.18,-76.51,64.78,95,58,1.16,broken clouds,0.0,0.0
Tocopilla,CL,2020-02-18 05:34:06,-22.09,-70.2,62.42,57,31,1.97,scattered clouds,0.0,0.0
Torbay,CA,2020-02-18 05:34:06,47.67,-52.73,28.99,92,75,13.87,broken clouds,0.0,0.0
Touros,BR,2020-02-18 05:34:06,-5.2,-35.46,78.8,88,75,6.93,broken clouds,0.0,0.0
Tsagan Aman,RU,2020-02-18 05:34:06,47.56,46.72,36.81,73,4,13.51,clear sky,0.0,0.0
Tsaratanana,MG,2020-02-18 05:34:06,-16.78,47.65,76.57,81,32,6.29,scattered clouds,0.0,0.0
Tual,ID,2020-02-18 05:33:11,-5.67,132.75,83.44,76,48,15.19,light rain,2.69,0.0
Tuatapere,NZ,2020-02-18 05:34:07,-46.13,167.68,59.0,89,100,5.01,light rain,1.87,0.0
Tubinskiy,RU,2020-02-18 05:34:07,52.89,58.22,26.6,73,75,22.37,broken clouds,0.0,0.0
Tuktoyaktuk,CA,2020-02-18 05:34:07,69.45,-133.04,-27.4,67,5,3.85,clear sky,0.0,0.0
Tungawan,PH,2020-02-18 05:34:08,7.51,122.37,84.63,65,17,0.69,few clouds,0.0,0.0
Turan,VN,2020-02-18 05:30:53,16.07,108.22,68.0,88,75,3.36,broken clouds,0.0,0.0
Turukhansk,RU,2020-02-18 05:34:08,65.82,87.98,16.81,91,100,15.1,light snow,0.0,0.44
Ulm,DE,2020-02-18 05:34:09,48.4,9.99,41.0,80,40,14.99,scattered clouds,0.0,0.0
Umm Kaddadah,SD,2020-02-18 05:34:09,13.6,26.69,65.53,26,0,16.13,clear sky,0.0,0.0
Umm Lajj,SA,2020-02-18 05:34:09,25.02,37.27,66.42,40,90,4.81,overcast clouds,0.0,0.0
Upernavik,GL,2020-02-18 05:34:09,72.79,-56.15,2.14,95,100,4.74,overcast clouds,0.0,0.0
Urumqi,CN,2020-02-18 05:34:09,43.8,87.6,24.8,73,87,2.24,overcast clouds,0.0,0.0
Urusha,RU,2020-02-18 05:34:10,54.05,122.9,15.87,67,56,12.08,broken clouds,0.0,0.0
Oruzgan,AF,2020-02-18 05:34:10,32.83,66.0,40.68,34,67,8.59,broken clouds,0.0,0.0
Ushuaia,AR,2020-02-18 05:29:32,-54.8,-68.3,48.2,70,75,8.05,light rain,0.0,0.0
Ust-Tsilma,RU,2020-02-18 05:34:10,65.44,52.15,33.55,91,100,13.22,overcast clouds,0.0,0.0
Vaini,TO,2020-02-18 05:34:10,-21.2,-175.2,80.6,69,20,12.75,few clouds,0.0,0.0
Valparaiso,CL,2020-02-18 05:34:11,-33.04,-71.63,60.8,51,0,4.94,clear sky,0.0,0.0
Vao,NC,2020-02-18 05:32:39,-22.67,167.48,79.75,78,74,18.7,light rain,0.44,0.0
Veere,NL,2020-02-18 05:34:11,51.55,3.67,46.4,75,16,21.92,light rain,0.25,0.0
Venkatagiri,IN,2020-02-18 05:34:11,13.97,79.58,78.8,47,4,4.7,clear sky,0.0,0.0
Verkhoyansk,RU,2020-02-18 05:34:12,67.54,133.38,-3.3,95,100,1.21,overcast clouds,0.0,0.0
Vestmannaeyjar,IS,2020-02-18 05:34:12,63.44,-20.27,38.32,65,100,4.88,overcast clouds,0.0,0.0
Hong Kong,HK,2020-02-18 05:31:05,22.29,114.16,70.0,37,0,6.93,clear sky,0.0,0.0
Vila Franca do Campo,PT,2020-02-18 05:34:12,37.72,-25.43,53.6,71,75,4.7,broken clouds,0.0,0.0
Vila Velha,BR,2020-02-18 05:34:12,-20.33,-40.29,78.8,88,40,5.82,scattered clouds,0.0,0.0
Waddan,LY,2020-02-18 05:34:12,29.16,16.14,51.57,81,77,3.11,broken clouds,0.0,0.0
Waipawa,NZ,2020-02-18 05:32:45,-41.41,175.52,69.01,82,100,18.34,light rain,2.69,0.0
Wajid,SO,2020-02-18 05:34:13,3.81,43.25,80.1,51,0,24.94,clear sky,0.0,0.0
Wattegama,LK,2020-02-18 05:34:13,6.8,81.48,84.2,62,0,9.17,clear sky,0.0,0.0
Waupun,US,2020-02-18 05:31:57,43.63,-88.73,34.0,99,90,3.36,overcast clouds,0.0,0.0
Waynesville,US,2020-02-18 05:34:14,35.49,-82.99,48.99,75,90,5.73,overcast clouds,0.0,0.0
Whitehorse,CA,2020-02-18 05:34:14,60.72,-135.05,6.8,71,90,14.99,overcast clouds,0.0,0.0
Xinqing,CN,2020-02-18 05:34:14,48.23,129.5,11.26,87,100,5.03,light snow,0.0,0.31
Yablonovo,RU,2020-02-18 05:34:14,50.85,37.36,33.8,80,100,11.18,overcast clouds,0.0,0.0
Yar-Sale,RU,2020-02-18 05:34:15,66.83,70.83,16.23,93,100,26.28,snow,0.0,2.19
Yarada,IN,2020-02-18 05:34:15,17.65,83.27,84.2,62,20,3.36,haze,0.0,0.0
Yellowknife,CA,2020-02-18 05:30:33,62.46,-114.35,-23.01,67,5,5.82,clear sky,0.0,0.0
Yenagoa,NG,2020-02-18 05:34:15,4.92,6.26,75.24,96,75,0.22,broken clouds,0.0,0.0
Yining,CN,2020-02-18 05:34:15,29.04,114.56,57.54,40,0,0.54,clear sky,0.0,0.0
Ypane,PY,2020-02-18 05:34:16,-25.45,-57.53,86.0,66,48,11.41,scattered clouds,0.0,0.0
Yuancheng,CN,2020-02-18 05:34:16,36.65,107.79,39.65,20,99,8.08,overcast clouds,0.0,0.0
Yulara,AU,2020-02-18 05:34:16,-25.24,130.99,100.4,13,0,10.29,clear sky,0.0,0.0
Zanjan,IR,2020-02-18 05:34:16,36.67,48.48,26.6,100,90,1.45,fog,0.0,0.0
Zaraza,VE,2020-02-18 05:34:16,9.35,-65.32,74.77,89,88,6.02,overcast clouds,0.0,0.0
Zavetnoye,RU,2020-02-18 05:34:17,47.12,43.89,36.03,79,2,14.83,clear sky,0.0,0.0
Zeya,RU,2020-02-18 05:34:17,53.75,127.27,18.61,77,100,5.01,overcast clouds,0.0,0.0
Zhanaozen,KZ,2020-02-18 05:32:36,43.3,52.8,36.03,57,0,15.66,clear sky,0.0,0.0
Zhangjiakou,CN,2020-02-18 05:34:17,40.81,114.88,26.98,61,97,2.91,overcast clouds,0.0,0.0
Zhigansk,RU,2020-02-18 05:32:48,66.77,123.37,-14.08,92,68,1.97,broken clouds,0.0,0.0
Zyryanka,RU,2020-02-18 05:34:18,65.75,150.85,-10.07,96,87,3.76,overcast clouds,0.0,0.0
